2020-01-23 15:43:48: {"class":"VERSION","release":"3.15","rev":"3.15-2build1","proto_major":3,"proto_minor":11}
2020-01-23 15:43:48: {"class":"DEVICES","devices":[{"class":"DEVICE","path":"/dev/ttyUSB0","driver":"MTK-3301","subtype":"AXN_2.5_3339_15092100-0004","activated":"2020-01-23T14:43:48.506Z","flags":1,"native":0,"bps":9600,"parity":"N","stopbits":1,"cycle":1.00,"mincycle":0.20}]}
2020-01-23 15:43:48: {"class":"WATCH","enable":true,"json":false,"nmea":true,"raw":0,"scaled":false,"timing":false,"split24":false,"pps":false}
2020-01-23 15:43:49: $GPZDA,144349.000,23,01,2020,,*59
2020-01-23 15:43:49: $GPRMC,144349.000,A,4744.6032,N,00306.0475,W,57.69,151.32,230120,,,A*4F
2020-01-23 15:43:49: $GPGGA,144349.000,4744.6032,N,00306.0475,W,1,10,0.84,18.3,M,50.0,M,,*44
2020-01-23 15:43:49: $GPGSA,A,3,19,15,13,10,25,28,24,12,17,20,,,1.49,0.84,1.23*01
2020-01-23 15:43:49: $GPTXT,01,01,02,ANTSTATUS=OK*3B
2020-01-23 15:43:50: $GPZDA,144350.000,23,01,2020,,*51
2020-01-23 15:43:50: $GPRMC,144350.000,A,4744.5891,N,00306.0361,W,57.65,151.34,230120,,,A*4D
2020-01-23 15:43:50: $GPGGA,144350.000,4744.5891,N,00306.0361,W,1,9,0.94,18.4,M,50.0,M,,*72
2020-01-23 15:43:50: $GPGSA,A,3,19,15,13,10,25,24,12,17,20,,,,1.76,0.94,1.49*0A
2020-01-23 15:43:50: $GPTXT,01,01,02,ANTSTATUS=OK*3B
2020-01-23 15:43:51: $GPZDA,144351.000,23,01,2020,,*50
2020-01-23 15:43:51: $GPRMC,144351.000,A,4744.5751,N,00306.0248,W,57.67,151.38,230120,,,A*4B
2020-01-23 15:43:51: $GPGGA,144351.000,4744.5751,N,00306.0248,W,1,9,0.93,18.5,M,50.0,M,,*7C
2020-01-23 15:43:51: $GPGSA,A,3,19,15,13,10,25,24,12,17,20,,,,1.24,0.93,0.83*0D
2020-01-23 15:43:51: $GPTXT,01,01,02,ANTSTATUS=OK*3B
2020-01-23 15:43:52: $GPZDA,144352.000,23,01,2020,,*53
2020-01-23 15:43:52: $GPRMC,144352.000,A,4744.5610,N,00306.0134,W,57.68,151.25,230120,,,A*47
2020-01-23 15:43:52: $GPGGA,144352.000,4744.5610,N,00306.0134,W,1,9,0.94,18.7,M,50.0,M,,*76
2020-01-23 15:43:52: $GPGSA,A,3,19,15,13,10,25,24,12,17,20,,,,1.76,0.94,1.49*0A
2020-01-23 15:43:52: $GPTXT,01,01,02,ANTSTATUS=OK*3B
2020-01-23 15:43:53: $GPZDA,144353.000,23,01,2020,,*52
2020-01-23 15:43:53: $GPRMC,144353.000,A,4744.5470,N,00306.0020,W,57.50,151.23,230120,,,A*4B
2020-01-23 15:43:53: $GPGGA,144353.000,4744.5470,N,00306.0020,W,1,9,0.93,18.8,M,50.0,M,,*7F
2020-01-23 15:43:53: $GPGSA,A,3,19,15,13,10,25,24,12,17,20,,,,1.24,0.93,0.83*0D
2020-01-23 15:43:53: $GPGSV,3,1,11,24,82,340,43,12,55,214,50,15,40,165,40,19,35,081,40*73
2020-01-23 15:43:53: $GPGSV,3,2,11,17,28,055,37,10,27,286,43,20,20,253,28,25,17,226,26*72
2020-01-23 15:43:53: $GPGSV,3,3,11,13,16,141,29,28,05,047,20,44,05,106,*4F
2020-01-23 15:43:53: $GPTXT,01,01,02,ANTSTATUS=OK*3B
2020-01-23 15:43:54: $GPZDA,144354.000,23,01,2020,,*55
2020-01-23 15:43:54: $GPRMC,144354.000,A,4744.5330,N,00305.9906,W,57.33,151.11,230120,,,A*4C
2020-01-23 15:43:54: $GPGGA,144354.000,4744.5330,N,00305.9906,W,1,10,0.84,18.8,M,50.0,M,,*42
2020-01-23 15:43:54: $GPGSA,A,3,19,15,13,10,25,28,24,12,17,20,,,1.49,0.84,1.23*01
2020-01-23 15:43:54: $GPTXT,01,01,02,ANTSTATUS=OK*3B
2020-01-23 15:43:55: $GPZDA,144355.000,23,01,2020,,*54
2020-01-23 15:43:55: $GPRMC,144355.000,A,4744.5191,N,00305.9793,W,57.27,151.12,230120,,,A*40
2020-01-23 15:43:55: $GPGGA,144355.000,4744.5191,N,00305.9793,W,1,10,0.84,18.6,M,50.0,M,,*46
2020-01-23 15:43:55: $GPGSA,A,3,19,15,13,10,25,28,24,12,17,20,,,1.49,0.84,1.23*01
2020-01-23 15:43:55: $GPTXT,01,01,02,ANTSTATUS=OK*3B
2020-01-23 15:43:56: $GPZDA,144356.000,23,01,2020,,*57
2020-01-23 15:43:56: $GPRMC,144356.000,A,4744.5052,N,00305.9680,W,57.06,151.16,230120,,,A*49
2020-01-23 15:43:56: $GPGGA,144356.000,4744.5052,N,00305.9680,W,1,10,0.84,18.5,M,50.0,M,,*4B
2020-01-23 15:43:56: $GPGSA,A,3,19,15,13,10,25,28,24,12,17,20,,,1.49,0.84,1.23*01
2020-01-23 15:43:56: $GPTXT,01,01,02,ANTSTATUS=OK*3B
2020-01-23 15:43:57: $GPZDA,144357.000,23,01,2020,,*56
2020-01-23 15:43:57: $GPRMC,144357.000,A,4744.4913,N,00305.9567,W,57.02,151.25,230120,,,A*4B
2020-01-23 15:43:57: $GPGGA,144357.000,4744.4913,N,00305.9567,W,1,10,0.84,18.4,M,50.0,M,,*4C
2020-01-23 15:43:57: $GPGSA,A,3,19,15,13,10,25,28,24,12,17,20,,,1.49,0.84,1.23*01
2020-01-23 15:43:57: $GPTXT,01,01,02,ANTSTATUS=OK*3B
2020-01-23 15:43:58: $GPZDA,144358.000,23,01,2020,,*59
2020-01-23 15:43:58: $GPRMC,144358.000,A,4744.4774,N,00305.9455,W,56.95,151.31,230120,,,A*41
2020-01-23 15:43:58: $GPGGA,144358.000,4744.4774,N,00305.9455,W,1,10,0.84,18.2,M,50.0,M,,*4A
2020-01-23 15:43:58: $GPGSA,A,3,19,15,13,10,25,28,24,12,17,20,,,1.49,0.84,1.23*01
2020-01-23 15:43:58: $GPGSV,3,1,11,24,82,342,43,12,55,214,50,15,40,165,39,19,35,081,41*7E
2020-01-23 15:43:58: $GPGSV,3,2,11,17,28,055,38,10,27,286,43,20,20,253,38,25,17,226,34*7F
2020-01-23 15:43:58: $GPGSV,3,3,11,13,16,141,29,28,05,047,33,44,05,106,*4D
2020-01-23 15:43:58: $GPTXT,01,01,02,ANTSTATUS=OK*3B
2020-01-23 15:43:59: $GPZDA,144359.000,23,01,2020,,*58
2020-01-23 15:43:59: $GPRMC,144359.000,A,4744.4635,N,00305.9344,W,56.91,151.24,230120,,,A*43
2020-01-23 15:43:59: $GPGGA,144359.000,4744.4635,N,00305.9344,W,1,10,0.84,18.0,M,50.0,M,,*4A
2020-01-23 15:43:59: $GPGSA,A,3,19,15,13,10,25,28,24,12,17,20,,,1.15,0.84,0.78*07
2020-01-23 15:43:59: $GPTXT,01,01,02,ANTSTATUS=OK*3B
2020-01-23 15:44:00: $GPZDA,144400.000,23,01,2020,,*53
2020-01-23 15:44:00: $GPRMC,144400.000,A,4744.4496,N,00305.9232,W,56.90,151.33,230120,,,A*44
2020-01-23 15:44:00: $GPGGA,144400.000,4744.4496,N,00305.9232,W,1,10,0.84,17.8,M,50.0,M,,*4D
2020-01-23 15:44:00: $GPGSA,A,3,19,15,13,10,25,28,24,12,17,20,,,1.15,0.84,0.78*07
2020-01-23 15:44:00: $GPTXT,01,01,02,ANTSTATUS=OK*3B
2020-01-23 15:44:01: $GPZDA,144401.000,23,01,2020,,*52
2020-01-23 15:44:01: $GPRMC,144401.000,A,4744.4357,N,00305.9120,W,56.96,151.34,230120,,,A*4E
2020-01-23 15:44:01: $GPGGA,144401.000,4744.4357,N,00305.9120,W,1,10,0.84,17.8,M,50.0,M,,*46
2020-01-23 15:44:01: $GPGSA,A,3,19,15,13,10,25,28,24,12,17,20,,,1.49,0.84,1.23*01
2020-01-23 15:44:01: $GPTXT,01,01,02,ANTSTATUS=OK*3B
2020-01-23 15:44:02: $GPZDA,144402.000,23,01,2020,,*51
2020-01-23 15:44:02: $GPRMC,144402.000,A,4744.4217,N,00305.9006,W,57.19,151.14,230120,,,A*49
2020-01-23 15:44:02: $GPGGA,144402.000,4744.4217,N,00305.9006,W,1,9,0.94,17.7,M,50.0,M,,*73
2020-01-23 15:44:02: $GPGSA,A,3,19,15,13,10,25,24,12,17,20,,,,1.76,0.94,1.49*0A
2020-01-23 15:44:02: $GPTXT,01,01,02,ANTSTATUS=OK*3B
2020-01-23 15:44:03: $GPZDA,144403.000,23,01,2020,,*50
2020-01-23 15:44:03: $GPRMC,144403.000,A,4744.4078,N,00305.8893,W,57.35,151.18,230120,,,A*44
2020-01-23 15:44:03: $GPGGA,144403.000,4744.4078,N,00305.8893,W,1,9,0.94,17.5,M,50.0,M,,*7E
2020-01-23 15:44:03: $GPGSA,A,3,19,15,13,10,25,24,12,17,20,,,,1.76,0.94,1.49*0A
2020-01-23 15:44:03: $GPGSV,3,1,11,24,82,342,43,12,55,214,50,15,40,165,39,19,35,081,38*70
2020-01-23 15:44:03: $GPGSV,3,2,11,17,28,055,37,10,27,286,43,20,20,253,37,25,17,226,35*7E
2020-01-23 15:44:03: $GPGSV,3,3,11,13,16,141,30,28,04,047,14,34,,,*74
2020-01-23 15:44:03: $GPTXT,01,01,02,ANTSTATUS=OK*3B
2020-01-23 15:44:04: $GPZDA,144404.000,23,01,2020,,*57
2020-01-23 15:44:04: $GPRMC,144404.000,A,4744.3938,N,00305.8779,W,57.39,151.07,230120,,,A*40
2020-01-23 15:44:04: $GPGGA,144404.000,4744.3938,N,00305.8779,W,1,9,0.94,17.4,M,50.0,M,,*79
2020-01-23 15:44:04: $GPGSA,A,3,19,15,13,10,25,24,12,17,20,,,,1.76,0.94,1.49*0A
2020-01-23 15:44:04: $GPTXT,01,01,02,ANTSTATUS=OK*3B
2020-01-23 15:44:05: $GPZDA,144405.000,23,01,2020,,*56
2020-01-23 15:44:05: $GPRMC,144405.000,A,4744.3798,N,00305.8664,W,57.57,151.05,230120,,,A*42
2020-01-23 15:44:05: $GPGGA,144405.000,4744.3798,N,00305.8664,W,1,9,0.94,17.4,M,50.0,M,,*71
2020-01-23 15:44:05: $GPGSA,A,3,19,15,13,10,25,24,12,17,20,,,,1.76,0.94,1.49*0A
2020-01-23 15:44:05: $GPTXT,01,01,02,ANTSTATUS=OK*3B
2020-01-23 15:44:06: $GPZDA,144406.000,23,01,2020,,*55
2020-01-23 15:44:06: $GPRMC,144406.000,A,4744.3658,N,00305.8548,W,57.73,150.72,230120,,,A*46
2020-01-23 15:44:06: $GPGGA,144406.000,4744.3658,N,00305.8548,W,1,9,0.93,17.3,M,50.0,M,,*72
2020-01-23 15:44:06: $GPGSA,A,3,19,15,13,10,25,24,12,17,20,,,,1.24,0.93,0.83*0D
2020-01-23 15:44:06: $GPTXT,01,01,02,ANTSTATUS=OK*3B
2020-01-23 15:44:07: $GPZDA,144407.000,23,01,2020,,*54
2020-01-23 15:44:07: $GPRMC,144407.000,A,4744.3518,N,00305.8433,W,57.70,151.17,230120,,,A*4C
2020-01-23 15:44:07: $GPGGA,144407.000,4744.3518,N,00305.8433,W,1,9,0.94,17.3,M,50.0,M,,*7E
2020-01-23 15:44:07: $GPGSA,A,3,19,15,13,10,25,24,12,17,20,,,,1.76,0.94,1.49*0A
2020-01-23 15:44:07: $GPTXT,01,01,02,ANTSTATUS=OK*3B
2020-01-23 15:44:08: $GPZDA,144408.000,23,01,2020,,*5B
2020-01-23 15:44:08: $GPRMC,144408.000,A,4744.3378,N,00305.8320,W,57.69,151.52,230120,,,A*4F
2020-01-23 15:44:08: $GPGGA,144408.000,4744.3378,N,00305.8320,W,1,9,0.94,17.2,M,50.0,M,,*75
2020-01-23 15:44:08: $GPGSA,A,3,19,15,13,10,25,24,12,17,20,,,,1.76,0.94,1.49*0A
2020-01-23 15:44:08: $GPGSV,3,1,11,24,82,342,44,12,55,214,50,15,40,165,40,19,35,081,40*76
2020-01-23 15:44:08: $GPGSV,3,2,11,17,28,055,34,10,27,286,37,20,20,253,22,25,17,226,22*7C
2020-01-23 15:44:08: $GPGSV,3,3,11,13,16,141,28,28,04,047,14,35,,,*7C
2020-01-23 15:44:08: $GPTXT,01,01,02,ANTSTATUS=OK*3B
2020-01-23 15:44:09: $GPZDA,144409.000,23,01,2020,,*5A
2020-01-23 15:44:09: $GPRMC,144409.000,A,4744.3237,N,00305.8207,W,57.67,151.44,230120,,,A*49
2020-01-23 15:44:09: $GPGGA,144409.000,4744.3237,N,00305.8207,W,1,9,0.94,17.1,M,50.0,M,,*79
2020-01-23 15:44:09: $GPGSA,A,3,19,15,13,10,25,24,12,17,20,,,,1.76,0.94,1.49*0A
2020-01-23 15:44:09: $GPTXT,01,01,02,ANTSTATUS=OK*3B
2020-01-23 15:44:10: $GPZDA,144410.000,23,01,2020,,*52
2020-01-23 15:44:10: $GPRMC,144410.000,A,4744.3096,N,00305.8093,W,57.68,151.37,230120,,,A*4C
2020-01-23 15:44:10: $GPGGA,144410.000,4744.3096,N,00305.8093,W,1,9,0.94,17.0,M,50.0,M,,*76
2020-01-23 15:44:10: $GPGSA,A,3,19,15,13,10,25,24,12,17,20,,,,1.76,0.94,1.49*0A
2020-01-23 15:44:10: $GPTXT,01,01,02,ANTSTATUS=OK*3B
2020-01-23 15:44:11: $GPZDA,144411.000,23,01,2020,,*53
2020-01-23 15:44:11: $GPRMC,144411.000,A,4744.2955,N,00305.7979,W,57.72,151.46,230120,,,A*45
2020-01-23 15:44:11: $GPGGA,144411.000,4744.2955,N,00305.7979,W,1,9,0.94,16.9,M,50.0,M,,*7A
2020-01-23 15:44:11: $GPGSA,A,3,19,15,13,10,25,24,12,17,20,,,,1.76,0.94,1.49*0A
2020-01-23 15:44:11: $GPTXT,01,01,02,ANTSTATUS=OK*3B
2020-01-23 15:44:12: $GPZDA,144412.000,23,01,2020,,*50
2020-01-23 15:44:12: $GPRMC,144412.000,A,4744.2813,N,00305.7864,W,57.73,151.35,230120,,,A*4D
2020-01-23 15:44:12: $GPGGA,144412.000,4744.2813,N,00305.7864,W,1,9,0.94,16.8,M,50.0,M,,*76
2020-01-23 15:44:12: $GPGSA,A,3,19,15,13,10,25,24,12,17,20,,,,1.76,0.94,1.49*0A
2020-01-23 15:44:12: $GPTXT,01,01,02,ANTSTATUS=OK*3B
2020-01-23 15:44:13: $GPZDA,144413.000,23,01,2020,,*51
2020-01-23 15:44:13: $GPRMC,144413.000,A,4744.2672,N,00305.7750,W,57.75,151.28,230120,,,A*47
2020-01-23 15:44:13: $GPGGA,144413.000,4744.2672,N,00305.7750,W,1,9,0.94,16.8,M,50.0,M,,*76
2020-01-23 15:44:13: $GPGSA,A,3,19,15,13,10,25,24,12,17,20,,,,1.76,0.94,1.49*0A
2020-01-23 15:44:13: $GPGSV,3,1,11,24,82,342,43,12,55,214,50,15,40,165,32,19,35,081,41*75
2020-01-23 15:44:13: $GPGSV,3,2,11,17,28,055,33,10,27,286,43,20,20,253,37,25,17,226,36*79
2020-01-23 15:44:13: $GPGSV,3,3,11,13,16,141,27,28,04,047,13,35,,,*74
2020-01-23 15:44:13: $GPTXT,01,01,02,ANTSTATUS=OK*3B
2020-01-23 15:44:14: $GPZDA,144414.000,23,01,2020,,*56
2020-01-23 15:44:14: $GPRMC,144414.000,A,4744.2531,N,00305.7636,W,57.72,151.28,230120,,,A*42
2020-01-23 15:44:14: $GPGGA,144414.000,4744.2531,N,00305.7636,W,1,9,0.94,17.0,M,50.0,M,,*7D
2020-01-23 15:44:14: $GPGSA,A,3,19,15,13,10,25,24,12,17,20,,,,1.76,0.94,1.49*0A
2020-01-23 15:44:14: $GPTXT,01,01,02,ANTSTATUS=OK*3B
2020-01-23 15:44:15: $GPZDA,144415.000,23,01,2020,,*57
2020-01-23 15:44:15: $GPRMC,144415.000,A,4744.2391,N,00305.7522,W,57.66,151.18,230120,,,A*4F
2020-01-23 15:44:15: $GPGGA,144415.000,4744.2391,N,00305.7522,W,1,9,0.94,17.2,M,50.0,M,,*74
2020-01-23 15:44:15: $GPGSA,A,3,19,15,13,10,25,24,12,17,20,,,,1.76,0.94,1.49*0A
2020-01-23 15:44:15: $GPTXT,01,01,02,ANTSTATUS=OK*3B
2020-01-23 15:44:16: $GPZDA,144416.000,23,01,2020,,*54
2020-01-23 15:44:16: $GPRMC,144416.000,A,4744.2251,N,00305.7407,W,57.60,151.01,230120,,,A*49
2020-01-23 15:44:16: $GPGGA,144416.000,4744.2251,N,00305.7407,W,1,9,0.94,17.3,M,50.0,M,,*7D
2020-01-23 15:44:16: $GPGSA,A,3,19,15,13,10,25,24,12,17,20,,,,1.76,0.94,1.49*0A
2020-01-23 15:44:16: $GPTXT,01,01,02,ANTSTATUS=OK*3B
2020-01-23 15:44:17: $GPZDA,144417.000,23,01,2020,,*55
2020-01-23 15:44:17: $GPRMC,144417.000,A,4744.2112,N,00305.7292,W,57.37,151.05,230120,,,A*40
2020-01-23 15:44:17: $GPGGA,144417.000,4744.2112,N,00305.7292,W,1,9,0.94,17.5,M,50.0,M,,*74
2020-01-23 15:44:17: $GPGSA,A,3,19,15,13,10,25,24,12,17,20,,,,1.76,0.94,1.49*0A
2020-01-23 15:44:17: $GPTXT,01,01,02,ANTSTATUS=OK*3B
2020-01-23 15:44:18: $GPZDA,144418.000,23,01,2020,,*5A
2020-01-23 15:44:18: $GPRMC,144418.000,A,4744.1974,N,00305.7175,W,57.33,150.85,230120,,,A*43
2020-01-23 15:44:18: $GPGGA,144418.000,4744.1974,N,00305.7175,W,1,9,0.94,17.4,M,50.0,M,,*7B
2020-01-23 15:44:18: $GPGSA,A,3,19,15,13,10,25,24,12,17,20,,,,1.76,0.94,1.49*0A
2020-01-23 15:44:18: $GPGSV,3,1,11,24,82,342,43,12,55,214,50,15,40,165,34,19,35,081,40*72
2020-01-23 15:44:18: $GPGSV,3,2,11,17,28,055,37,10,27,286,43,20,20,253,31,25,17,226,26*7A
2020-01-23 15:44:18: $GPGSV,3,3,11,13,16,141,36,28,04,047,26,36,,,39*7B
2020-01-23 15:44:18: $GPTXT,01,01,02,ANTSTATUS=OK*3B
2020-01-23 15:44:19: $GPZDA,144419.000,23,01,2020,,*5B
2020-01-23 15:44:19: $GPRMC,144419.000,A,4744.1835,N,00305.7061,W,57.26,150.99,230120,,,A*4B
2020-01-23 15:44:19: $GPGGA,144419.000,4744.1835,N,00305.7061,W,1,9,0.94,17.7,M,50.0,M,,*79
2020-01-23 15:44:19: $GPGSA,A,3,19,15,13,10,25,24,12,17,20,,,,1.76,0.94,1.49*0A
2020-01-23 15:44:19: $GPTXT,01,01,02,ANTSTATUS=OK*3B
2020-01-23 15:44:20: $GPZDA,144420.000,23,01,2020,,*51
2020-01-23 15:44:20: $GPRMC,144420.000,A,4744.1697,N,00305.6946,W,57.07,150.94,230120,,,A*44
2020-01-23 15:44:20: $GPGGA,144420.000,4744.1697,N,00305.6946,W,1,9,0.94,17.8,M,50.0,M,,*77
2020-01-23 15:44:20: $GPGSA,A,3,19,15,13,10,25,24,12,17,20,,,,1.76,0.94,1.49*0A
2020-01-23 15:44:20: $GPTXT,01,01,02,ANTSTATUS=OK*3B
2020-01-23 15:44:21: $GPZDA,144421.000,23,01,2020,,*50
2020-01-23 15:44:21: $GPRMC,144421.000,A,4744.1560,N,00305.6830,W,56.90,150.37,230120,,,A*48
2020-01-23 15:44:21: $GPGGA,144421.000,4744.1560,N,00305.6830,W,1,9,0.94,17.9,M,50.0,M,,*7C
2020-01-23 15:44:21: $GPGSA,A,3,19,15,13,10,25,24,12,17,20,,,,1.76,0.94,1.49*0A
2020-01-23 15:44:21: $GPTXT,01,01,02,ANTSTATUS=OK*3B
2020-01-23 15:44:22: $GPZDA,144422.000,23,01,2020,,*53
2020-01-23 15:44:22: $GPRMC,144422.000,A,4744.1423,N,00305.6714,W,56.85,150.46,230120,,,A*46
2020-01-23 15:44:22: $GPGGA,144422.000,4744.1423,N,00305.6714,W,1,9,0.94,18.1,M,50.0,M,,*77
2020-01-23 15:44:22: $GPGSA,A,3,19,15,13,10,25,24,12,17,20,,,,1.76,0.94,1.49*0A
2020-01-23 15:44:22: $GPTXT,01,01,02,ANTSTATUS=OK*3B
2020-01-23 15:44:23: $GPZDA,144423.000,23,01,2020,,*52
2020-01-23 15:44:23: $GPRMC,144423.000,A,4744.1286,N,00305.6599,W,56.79,150.71,230120,,,A*4E
2020-01-23 15:44:23: $GPGGA,144423.000,4744.1286,N,00305.6599,W,1,9,0.94,18.5,M,50.0,M,,*7C
2020-01-23 15:44:23: $GPGSA,A,3,19,15,13,10,25,24,12,17,20,,,,1.76,0.94,1.49*0A
2020-01-23 15:44:23: $GPGSV,3,1,11,24,82,342,42,12,56,214,50,15,40,165,32,19,35,081,39*78
2020-01-23 15:44:23: $GPGSV,3,2,11,17,28,055,35,10,27,286,43,20,20,253,39,25,17,226,29*7F
2020-01-23 15:44:23: $GPGSV,3,3,11,13,16,141,34,28,04,047,21,36,,,39*7E
2020-01-23 15:44:23: $GPTXT,01,01,02,ANTSTATUS=OK*3B
2020-01-23 15:44:24: $GPZDA,144424.000,23,01,2020,,*55
2020-01-23 15:44:24: $GPRMC,144424.000,A,4744.1149,N,00305.6485,W,56.63,150.68,230120,,,A*46
2020-01-23 15:44:24: $GPGGA,144424.000,4744.1149,N,00305.6485,W,1,9,0.94,18.8,M,50.0,M,,*7A
2020-01-23 15:44:24: $GPGSA,A,3,19,15,13,10,25,24,12,17,20,,,,1.76,0.94,1.49*0A
2020-01-23 15:44:24: $GPTXT,01,01,02,ANTSTATUS=OK*3B
2020-01-23 15:44:25: $GPZDA,144425.000,23,01,2020,,*54
2020-01-23 15:44:25: $GPRMC,144425.000,A,4744.1012,N,00305.6371,W,56.58,150.85,230120,,,A*4F
2020-01-23 15:44:25: $GPGGA,144425.000,4744.1012,N,00305.6371,W,1,9,0.94,19.2,M,50.0,M,,*73
2020-01-23 15:44:25: $GPGSA,A,3,19,15,13,10,25,24,12,17,20,,,,1.76,0.94,1.49*0A
2020-01-23 15:44:25: $GPTXT,01,01,02,ANTSTATUS=OK*3B
2020-01-23 15:44:26: $GPZDA,144426.000,23,01,2020,,*57
2020-01-23 15:44:26: $GPRMC,144426.000,A,4744.0874,N,00305.6258,W,56.55,150.94,230120,,,A*42
2020-01-23 15:44:26: $GPGGA,144426.000,4744.0874,N,00305.6258,W,1,9,0.94,19.5,M,50.0,M,,*74
2020-01-23 15:44:26: $GPGSA,A,3,19,15,13,10,25,24,12,17,20,,,,1.76,0.94,1.49*0A
2020-01-23 15:44:26: $GPTXT,01,01,02,ANTSTATUS=OK*3B
2020-01-23 15:44:27: $GPZDA,144427.000,23,01,2020,,*56
2020-01-23 15:44:27: $GPRMC,144427.000,A,4744.0737,N,00305.6145,W,56.48,151.05,230120,,,A*41
2020-01-23 15:44:27: $GPGGA,144427.000,4744.0737,N,00305.6145,W,1,9,0.94,19.9,M,50.0,M,,*7E
2020-01-23 15:44:27: $GPGSA,A,3,19,15,13,10,25,24,12,17,20,,,,1.76,0.94,1.49*0A
2020-01-23 15:44:27: $GPTXT,01,01,02,ANTSTATUS=OK*3B
2020-01-23 15:44:28: $GPZDA,144428.000,23,01,2020,,*59
2020-01-23 15:44:28: $GPRMC,144428.000,A,4744.0600,N,00305.6033,W,56.40,151.12,230120,,,A*45
2020-01-23 15:44:28: $GPGGA,144428.000,4744.0600,N,00305.6033,W,1,9,0.94,20.2,M,50.0,M,,*75
2020-01-23 15:44:28: $GPGSA,A,3,19,15,13,10,25,24,12,17,20,,,,1.76,0.94,1.49*0A
2020-01-23 15:44:28: $GPGSV,3,1,11,24,82,342,42,12,56,214,50,15,40,165,35,19,35,081,39*7F
2020-01-23 15:44:28: $GPGSV,3,2,11,17,28,054,37,10,27,286,42,20,20,253,38,25,17,226,37*73
2020-01-23 15:44:28: $GPGSV,3,3,11,13,16,141,37,28,04,047,19,38,,,33*72
2020-01-23 15:44:28: $GPTXT,01,01,02,ANTSTATUS=OK*3B
2020-01-23 15:44:29: $GPZDA,144429.000,23,01,2020,,*58
2020-01-23 15:44:29: $GPRMC,144429.000,A,4744.0464,N,00305.5922,W,56.22,151.25,230120,,,A*4E
2020-01-23 15:44:29: $GPGGA,144429.000,4744.0464,N,00305.5922,W,1,9,0.93,20.4,M,50.0,M,,*7F
2020-01-23 15:44:29: $GPGSA,A,3,19,15,13,10,25,24,12,17,20,,,,1.24,0.93,0.83*0D
2020-01-23 15:44:29: $GPTXT,01,01,02,ANTSTATUS=OK*3B
2020-01-23 15:44:30: $GPZDA,144430.000,23,01,2020,,*50
2020-01-23 15:44:30: $GPRMC,144430.000,A,4744.0327,N,00305.5811,W,56.25,151.42,230120,,,A*41
2020-01-23 15:44:30: $GPGGA,144430.000,4744.0327,N,00305.5811,W,1,9,0.94,20.6,M,50.0,M,,*73
2020-01-23 15:44:30: $GPGSA,A,3,19,15,13,10,25,24,12,17,20,,,,1.76,0.94,1.49*0A
2020-01-23 15:44:30: $GPTXT,01,01,02,ANTSTATUS=OK*3B
2020-01-23 15:44:31: $GPZDA,144431.000,23,01,2020,,*51
2020-01-23 15:44:31: $GPRMC,144431.000,A,4744.0190,N,00305.5699,W,56.29,151.36,230120,,,A*4F
2020-01-23 15:44:31: $GPGGA,144431.000,4744.0190,N,00305.5699,W,1,9,0.94,20.8,M,50.0,M,,*7C
2020-01-23 15:44:31: $GPGSA,A,3,19,15,13,10,25,24,12,17,20,,,,1.76,0.94,1.49*0A
2020-01-23 15:44:31: $GPTXT,01,01,02,ANTSTATUS=OK*3B
2020-01-23 15:44:32: $GPZDA,144432.000,23,01,2020,,*52
2020-01-23 15:44:32: $GPRMC,144432.000,A,4744.0052,N,00305.5588,W,56.32,151.39,230120,,,A*45
2020-01-23 15:44:32: $GPGGA,144432.000,4744.0052,N,00305.5588,W,1,9,0.94,21.0,M,50.0,M,,*7A
2020-01-23 15:44:32: $GPGSA,A,3,19,15,13,10,25,24,12,17,20,,,,1.76,0.94,1.49*0A
2020-01-23 15:44:32: $GPTXT,01,01,02,ANTSTATUS=OK*3B
2020-01-23 15:44:33: $GPZDA,144433.000,23,01,2020,,*53
2020-01-23 15:44:33: $GPRMC,144433.000,A,4743.9915,N,00305.5477,W,56.15,151.37,230120,,,A*4A
2020-01-23 15:44:33: $GPGGA,144433.000,4743.9915,N,00305.5477,W,1,9,0.93,21.1,M,50.0,M,,*78
2020-01-23 15:44:33: $GPGSA,A,3,19,15,13,10,25,24,12,17,20,,,,1.24,0.93,0.83*0D
2020-01-23 15:44:33: $GPGSV,3,1,11,24,82,342,43,12,56,214,50,15,40,165,36,19,35,081,41*72
2020-01-23 15:44:33: $GPGSV,3,2,11,17,28,054,39,10,27,286,42,20,20,252,25,25,17,226,30*77
2020-01-23 15:44:33: $GPGSV,3,3,11,13,16,141,34,28,04,047,21,38,,,36*7F
2020-01-23 15:44:33: $GPTXT,01,01,02,ANTSTATUS=OK*3B
2020-01-23 15:44:34: $GPZDA,144434.000,23,01,2020,,*54
2020-01-23 15:44:34: $GPRMC,144434.000,A,4743.9778,N,00305.5366,W,56.13,151.12,230120,,,A*4E
2020-01-23 15:44:34: $GPGGA,144434.000,4743.9778,N,00305.5366,W,1,9,0.94,21.1,M,50.0,M,,*7A
2020-01-23 15:44:34: $GPGSA,A,3,19,15,13,10,25,24,12,17,20,,,,1.76,0.94,1.49*0A
2020-01-23 15:44:34: $GPTXT,01,01,02,ANTSTATUS=OK*3B
2020-01-23 15:44:35: $GPZDA,144435.000,23,01,2020,,*55
2020-01-23 15:44:35: $GPRMC,144435.000,A,4743.9642,N,00305.5254,W,56.09,151.09,230120,,,A*46
2020-01-23 15:44:35: $GPGGA,144435.000,4743.9642,N,00305.5254,W,1,9,0.93,20.8,M,50.0,M,,*7C
2020-01-23 15:44:35: $GPGSA,A,3,19,15,13,10,25,24,12,17,20,,,,1.24,0.93,0.83*0D
2020-01-23 15:44:35: $GPTXT,01,01,02,ANTSTATUS=OK*3B
2020-01-23 15:44:36: $GPZDA,144436.000,23,01,2020,,*56
2020-01-23 15:44:36: $GPRMC,144436.000,A,4743.9505,N,00305.5142,W,56.08,151.24,230120,,,A*4F
2020-01-23 15:44:36: $GPGGA,144436.000,4743.9505,N,00305.5142,W,1,9,0.93,20.6,M,50.0,M,,*75
2020-01-23 15:44:36: $GPGSA,A,3,19,15,13,10,25,24,12,17,20,,,,1.24,0.93,0.83*0D
2020-01-23 15:44:36: $GPTXT,01,01,02,ANTSTATUS=OK*3B
2020-01-23 15:44:37: $GPZDA,144437.000,23,01,2020,,*57
2020-01-23 15:44:37: $GPRMC,144437.000,A,4743.9368,N,00305.5032,W,56.09,151.41,230120,,,A*47
2020-01-23 15:44:37: $GPGGA,144437.000,4743.9368,N,00305.5032,W,1,9,0.93,20.4,M,50.0,M,,*7D
2020-01-23 15:44:37: $GPGSA,A,3,19,15,13,10,25,24,12,17,20,,,,1.24,0.93,0.83*0D
2020-01-23 15:44:37: $GPTXT,01,01,02,ANTSTATUS=OK*3B
2020-01-23 15:44:38: $GPZDA,144438.000,23,01,2020,,*58
2020-01-23 15:44:38: $GPRMC,144438.000,A,4743.9231,N,00305.4922,W,56.13,151.55,230120,,,A*42
2020-01-23 15:44:38: $GPGGA,144438.000,4743.9231,N,00305.4922,W,1,9,0.94,20.0,M,50.0,M,,*75
2020-01-23 15:44:38: $GPGSA,A,3,19,15,13,10,25,24,12,17,20,,,,1.76,0.94,1.49*0A
2020-01-23 15:44:38: $GPGSV,3,1,11,24,82,344,43,12,56,214,50,15,40,165,33,19,35,081,41*71
2020-01-23 15:44:38: $GPGSV,3,2,11,17,28,054,39,10,27,286,42,20,20,252,39,25,17,226,34*7E
2020-01-23 15:44:38: $GPGSV,3,3,11,13,16,141,32,28,04,047,20,41,,,*73
2020-01-23 15:44:38: $GPTXT,01,01,02,ANTSTATUS=OK*3B
2020-01-23 15:44:39: $GPZDA,144439.000,23,01,2020,,*59
2020-01-23 15:44:39: $GPRMC,144439.000,A,4743.9094,N,00305.4810,W,56.40,150.99,230120,,,A*49
2020-01-23 15:44:39: $GPGGA,144439.000,4743.9094,N,00305.4810,W,1,9,0.93,19.5,M,50.0,M,,*71
2020-01-23 15:44:39: $GPGSA,A,3,19,15,13,10,25,24,12,17,20,,,,1.24,0.93,0.83*0D
2020-01-23 15:44:39: $GPTXT,01,01,02,ANTSTATUS=OK*3B
2020-01-23 15:44:40: $GPZDA,144440.000,23,01,2020,,*57
2020-01-23 15:44:40: $GPRMC,144440.000,A,4743.8958,N,00305.4696,W,56.39,150.47,230120,,,A*42
2020-01-23 15:44:40: $GPGGA,144440.000,4743.8958,N,00305.4696,W,1,9,0.94,19.0,M,50.0,M,,*75
2020-01-23 15:44:40: $GPGSA,A,3,19,15,13,10,25,24,12,17,20,,,,1.76,0.94,1.49*0A
2020-01-23 15:44:40: $GPTXT,01,01,02,ANTSTATUS=OK*3B
2020-01-23 15:44:41: $GPZDA,144441.000,23,01,2020,,*56
2020-01-23 15:44:41: $GPRMC,144441.000,A,4743.8823,N,00305.4580,W,56.55,149.85,230120,,,A*46
2020-01-23 15:44:41: $GPGGA,144441.000,4743.8823,N,00305.4580,W,1,9,0.94,18.4,M,50.0,M,,*78
2020-01-23 15:44:41: $GPGSA,A,3,19,15,13,10,25,24,12,17,20,,,,1.76,0.94,1.49*0A
2020-01-23 15:44:41: $GPTXT,01,01,02,ANTSTATUS=OK*3B
2020-01-23 15:44:42: $GPZDA,144442.000,23,01,2020,,*55
2020-01-23 15:44:42: $GPRMC,144442.000,A,4743.8686,N,00305.4461,W,56.60,149.21,230120,,,A*42
2020-01-23 15:44:42: $GPGGA,144442.000,4743.8686,N,00305.4461,W,1,9,0.94,18.0,M,50.0,M,,*70
2020-01-23 15:44:42: $GPGSA,A,3,19,15,13,10,25,24,12,17,20,,,,1.76,0.94,1.49*0A
2020-01-23 15:44:42: $GPTXT,01,01,02,ANTSTATUS=OK*3B
2020-01-23 15:44:43: $GPZDA,144443.000,23,01,2020,,*54
2020-01-23 15:44:43: $GPRMC,144443.000,A,4743.8551,N,00305.4340,W,56.64,148.35,230120,,,A*4E
2020-01-23 15:44:43: $GPGGA,144443.000,4743.8551,N,00305.4340,W,1,9,0.94,17.6,M,50.0,M,,*75
2020-01-23 15:44:43: $GPGSA,A,3,19,15,13,10,25,24,12,17,20,,,,1.76,0.94,1.49*0A
2020-01-23 15:44:43: $GPGSV,3,1,11,24,82,344,43,12,56,214,49,15,40,165,34,19,35,081,43*7C
2020-01-23 15:44:43: $GPGSV,3,2,11,17,28,054,38,10,27,286,43,20,20,252,36,25,17,226,34*71
2020-01-23 15:44:43: $GPGSV,3,3,11,13,16,141,36,28,04,047,20,43,,,*75
2020-01-23 15:44:43: $GPTXT,01,01,02,ANTSTATUS=OK*3B
2020-01-23 15:44:44: $GPZDA,144444.000,23,01,2020,,*53
2020-01-23 15:44:44: $GPRMC,144444.000,A,4743.8418,N,00305.4216,W,56.66,147.40,230120,,,A*48
2020-01-23 15:44:44: $GPGGA,144444.000,4743.8418,N,00305.4216,W,1,9,0.94,17.2,M,50.0,M,,*78
2020-01-23 15:44:44: $GPGSA,A,3,19,15,13,10,25,24,12,17,20,,,,1.76,0.94,1.49*0A
2020-01-23 15:44:44: $GPTXT,01,01,02,ANTSTATUS=OK*3B
2020-01-23 15:44:45: $GPZDA,144445.000,23,01,2020,,*52
2020-01-23 15:44:45: $GPRMC,144445.000,A,4743.8285,N,00305.4089,W,56.66,146.79,230120,,,A*44
2020-01-23 15:44:45: $GPGGA,144445.000,4743.8285,N,00305.4089,W,1,9,0.94,16.7,M,50.0,M,,*7B
2020-01-23 15:44:45: $GPGSA,A,3,19,15,13,10,25,24,12,17,20,,,,1.76,0.94,1.49*0A
2020-01-23 15:44:45: $GPTXT,01,01,02,ANTSTATUS=OK*3B
2020-01-23 15:44:46: $GPZDA,144446.000,23,01,2020,,*51
2020-01-23 15:44:46: $GPRMC,144446.000,A,4743.8154,N,00305.3960,W,56.45,145.94,230120,,,A*40
2020-01-23 15:44:46: $GPGGA,144446.000,4743.8154,N,00305.3960,W,1,9,0.93,16.2,M,50.0,M,,*7C
2020-01-23 15:44:46: $GPGSA,A,3,19,15,13,10,25,24,12,17,20,,,,1.24,0.93,0.83*0D
2020-01-23 15:44:46: $GPTXT,01,01,02,ANTSTATUS=OK*3B
2020-01-23 15:44:47: $GPZDA,144447.000,23,01,2020,,*50
2020-01-23 15:44:47: $GPRMC,144447.000,A,4743.8025,N,00305.3828,W,56.26,145.15,230120,,,A*47
2020-01-23 15:44:47: $GPGGA,144447.000,4743.8025,N,00305.3828,W,1,9,0.94,15.7,M,50.0,M,,*76
2020-01-23 15:44:47: $GPGSA,A,3,19,15,13,10,25,24,12,17,20,,,,1.76,0.94,1.49*0A
2020-01-23 15:44:47: $GPTXT,01,01,02,ANTSTATUS=OK*3B
2020-01-23 15:44:48: $GPZDA,144448.000,23,01,2020,,*5F
2020-01-23 15:44:48: $GPRMC,144448.000,A,4743.7898,N,00305.3693,W,56.02,143.88,230120,,,A*43
2020-01-23 15:44:48: $GPGGA,144448.000,4743.7898,N,00305.3693,W,1,9,0.93,15.2,M,50.0,M,,*74
2020-01-23 15:44:48: $GPGSA,A,3,19,15,13,10,25,24,12,17,20,,,,1.24,0.93,0.83*0D
2020-01-23 15:44:48: $GPGSV,3,1,11,24,82,344,43,12,56,214,51,15,40,165,31,19,35,081,43*70
2020-01-23 15:44:48: $GPGSV,3,2,11,17,28,054,42,10,27,286,29,20,20,252,25,25,17,226,35*73
2020-01-23 15:44:48: $GPGSV,3,3,11,13,16,141,39,28,04,047,21,43,,,*7B
2020-01-23 15:44:48: $GPTXT,01,01,02,ANTSTATUS=OK*3B
2020-01-23 15:44:49: $GPZDA,144449.000,23,01,2020,,*5E
2020-01-23 15:44:49: $GPRMC,144449.000,A,4743.7773,N,00305.3555,W,55.73,142.81,230120,,,A*4C
2020-01-23 15:44:49: $GPGGA,144449.000,4743.7773,N,00305.3555,W,1,9,0.93,14.8,M,50.0,M,,*7D
2020-01-23 15:44:49: $GPGSA,A,3,19,15,13,10,25,24,12,17,20,,,,1.24,0.93,0.83*0D
2020-01-23 15:44:49: $GPTXT,01,01,02,ANTSTATUS=OK*3B
2020-01-23 15:44:50: $GPZDA,144450.000,23,01,2020,,*56
2020-01-23 15:44:50: $GPRMC,144450.000,A,4743.7651,N,00305.3414,W,55.46,141.59,230120,,,A*41
2020-01-23 15:44:50: $GPGGA,144450.000,4743.7651,N,00305.3414,W,1,9,0.93,14.3,M,50.0,M,,*7B
2020-01-23 15:44:50: $GPGSA,A,3,19,15,13,10,25,24,12,17,20,,,,1.24,0.93,0.83*0D
2020-01-23 15:44:50: $GPTXT,01,01,02,ANTSTATUS=OK*3B
2020-01-23 15:44:51: $GPZDA,144451.000,23,01,2020,,*57
2020-01-23 15:44:51: $GPRMC,144451.000,A,4743.7531,N,00305.3270,W,55.14,140.45,230120,,,A*4A
2020-01-23 15:44:51: $GPGGA,144451.000,4743.7531,N,00305.3270,W,1,9,0.94,13.9,M,50.0,M,,*71
2020-01-23 15:44:51: $GPGSA,A,3,19,15,13,10,25,24,12,17,20,,,,1.76,0.94,1.49*0A
2020-01-23 15:44:51: $GPTXT,01,01,02,ANTSTATUS=OK*3B
2020-01-23 15:44:52: $GPZDA,144452.000,23,01,2020,,*54
2020-01-23 15:44:52: $GPRMC,144452.000,A,4743.7414,N,00305.3123,W,54.83,139.01,230120,,,A*4B
2020-01-23 15:44:52: $GPGGA,144452.000,4743.7414,N,00305.3123,W,1,9,0.94,13.6,M,50.0,M,,*7E
2020-01-23 15:44:52: $GPGSA,A,3,19,15,13,10,25,24,12,17,20,,,,1.76,0.94,1.49*0A
2020-01-23 15:44:52: $GPTXT,01,01,02,ANTSTATUS=OK*3B
2020-01-23 15:44:53: $GPZDA,144453.000,23,01,2020,,*55
2020-01-23 15:44:53: $GPRMC,144453.000,A,4743.7301,N,00305.2974,W,54.82,137.72,230120,,,A*49
2020-01-23 15:44:53: $GPGGA,144453.000,4743.7301,N,00305.2974,W,1,9,0.94,13.3,M,50.0,M,,*72
2020-01-23 15:44:53: $GPGSA,A,3,19,15,13,10,25,24,12,17,20,,,,1.76,0.94,1.49*0A
2020-01-23 15:44:53: $GPGSV,3,1,11,24,82,344,43,12,56,214,51,15,40,165,46,19,35,081,41*72
2020-01-23 15:44:53: $GPGSV,3,2,11,17,28,054,40,10,27,286,40,20,20,252,32,25,17,226,37*7A
2020-01-23 15:44:53: $GPGSV,3,3,11,13,16,141,28,28,04,047,33,45,,,*7E
2020-01-23 15:44:53: $GPTXT,01,01,02,ANTSTATUS=OK*3B
2020-01-23 15:44:54: $GPZDA,144454.000,23,01,2020,,*52
2020-01-23 15:44:54: $GPRMC,144454.000,A,4743.7190,N,00305.2822,W,54.32,136.71,230120,,,A*4F
2020-01-23 15:44:54: $GPGGA,144454.000,4743.7190,N,00305.2822,W,1,9,0.94,12.8,M,50.0,M,,*77
2020-01-23 15:44:54: $GPGSA,A,3,19,15,13,10,25,24,12,17,20,,,,1.76,0.94,1.49*0A
2020-01-23 15:44:54: $GPTXT,01,01,02,ANTSTATUS=OK*3B
2020-01-23 15:44:55: $GPZDA,144455.000,23,01,2020,,*53
2020-01-23 15:44:55: $GPRMC,144455.000,A,4743.7081,N,00305.2667,W,54.37,135.79,230120,,,A*4E
2020-01-23 15:44:55: $GPGGA,144455.000,4743.7081,N,00305.2667,W,1,9,0.94,12.4,M,50.0,M,,*74
2020-01-23 15:44:55: $GPGSA,A,3,19,15,13,10,25,24,12,17,20,,,,1.76,0.94,1.49*0A
2020-01-23 15:44:55: $GPTXT,01,01,02,ANTSTATUS=OK*3B
2020-01-23 15:44:56: $GPZDA,144456.000,23,01,2020,,*50
2020-01-23 15:44:56: $GPRMC,144456.000,A,4743.6973,N,00305.2509,W,54.44,135.03,230120,,,A*4A
2020-01-23 15:44:56: $GPGGA,144456.000,4743.6973,N,00305.2509,W,1,9,0.94,12.0,M,50.0,M,,*7D
2020-01-23 15:44:56: $GPGSA,A,3,19,15,13,10,25,24,12,17,20,,,,1.76,0.94,1.49*0A
2020-01-23 15:44:56: $GPTXT,01,01,02,ANTSTATUS=OK*3B
2020-01-23 15:44:57: $GPZDA,144457.000,23,01,2020,,*51
2020-01-23 15:44:57: $GPRMC,144457.000,A,4743.6867,N,00305.2350,W,54.47,134.52,230120,,,A*43
2020-01-23 15:44:57: $GPGGA,144457.000,4743.6867,N,00305.2350,W,1,9,0.94,11.7,M,50.0,M,,*76
2020-01-23 15:44:57: $GPGSA,A,3,19,15,13,10,25,24,12,17,20,,,,1.76,0.94,1.49*0A
2020-01-23 15:44:57: $GPTXT,01,01,02,ANTSTATUS=OK*3B
2020-01-23 15:44:58: $GPZDA,144458.000,23,01,2020,,*5E
2020-01-23 15:44:58: $GPRMC,144458.000,A,4743.6763,N,00305.2187,W,54.47,133.15,230120,,,A*4B
2020-01-23 15:44:58: $GPGGA,144458.000,4743.6763,N,00305.2187,W,1,9,0.94,11.5,M,50.0,M,,*78
2020-01-23 15:44:58: $GPGSA,A,3,19,15,13,10,25,24,12,17,20,,,,1.76,0.94,1.49*0A
2020-01-23 15:44:58: $GPGSV,3,1,11,24,82,344,41,12,56,215,51,15,40,165,49,19,35,081,42*7D
2020-01-23 15:44:58: $GPGSV,3,2,11,17,28,054,42,10,27,286,40,20,20,252,34,25,17,226,28*70
2020-01-23 15:44:58: $GPGSV,3,3,11,13,16,141,26,28,04,047,18,46,,,*7A
2020-01-23 15:44:58: $GPTXT,01,01,02,ANTSTATUS=OK*3B
